{
  "type": "FeatureCollection",
  "features": [
    {
      "type": "Feature",
      "properties": { "stop_id": "100", "name": "1st Ave & Spring St", "is_station": false },
      "geometry": { "type": "Point", "coordinates": [-122.336533, 47.6051369] }
    },
    {
      "type": "Feature",
      "properties": { "stop_id": "10005", "name": "40th Ave NE & NE 51st St", "is_station": false },
      "geometry": { "type": "Point", "coordinates": [-122.284897, 47.6658859] }
    },
    {
      "type": "Feature",
      "properties": { "stop_id": "10010", "name": "NE 55th St & 39th Ave NE", "is_station": false },
      "geometry": { "type": "Point", "coordinates": [-122.285667, 47.6685791] }
    },
    {
      "type": "Feature",
      "properties": { "stop_id": "10020", "name": "NE 55th St & 37th Ave NE", "is_station": false },
      "geometry": { "type": "Point", "coordinates": [-122.2883, 47.6685791] }
    },
    {
      "type": "Feature",
      "properties": { "stop_id": "10030", "name": "NE 55th St & 35th Ave NE", "is_station": false },
      "geometry": { "type": "Point", "coordinates": [-122.290512, 47.6685791] }
    },
    {
      "type": "Feature",
      "properties": { "stop_id": "10040", "name": "NE 55th St & 33rd Ave NE", "is_station": false },
      "geometry": { "type": "Point", "coordinates": [-122.293015, 47.6685829] }
    },
    {
      "type": "Feature",
      "properties": { "stop_id": "10050", "name": "NE 55th St & 30th Ave NE", "is_station": false },
      "geometry": { "type": "Point", "coordinates": [-122.295448, 47.6685905] }
    },
    {
      "type": "Feature",
      "properties": { "stop_id": "10060", "name": "NE 55th St & 27th Ave NE", "is_station": false },
      "geometry": { "type": "Point", "coordinates": [-122.298859, 47.6685944] }
    },
    {
      "type": "Feature",
      "properties": { "stop_id": "10070", "name": "NE 55th St & 25th Ave NE", "is_station": false },
      "geometry": { "type": "Point", "coordinates": [-122.30098, 47.6685944] }
    },
    {
      "type": "Feature",
      "properties": {
        "stop_id": "10083",
        "name": "Ravenna Ave NE & Ravenna Pl NE",
        "is_station": false
      },
      "geometry": { "type": "Point", "coordinates": [-122.30378, 47.6684799] }
    },
    {
      "type": "Feature",
      "properties": { "stop_id": "101", "name": "Spring St & 3rd Ave", "is_station": false },
      "geometry": { "type": "Point", "coordinates": [-122.334969, 47.6061363] }
    },
    {
      "type": "Feature",
      "properties": { "stop_id": "1010", "name": "Howell St & Minor Ave", "is_station": false },
      "geometry": { "type": "Point", "coordinates": [-122.330597, 47.6167107] }
    },
    {
      "type": "Feature",
      "properties": {
        "stop_id": "10100",
        "name": "NE Ravenna Blvd & Park Rd NE",
        "is_station": false
      },
      "geometry": { "type": "Point", "coordinates": [-122.305405, 47.6695518] }
    },
    {
      "type": "Feature",
      "properties": { "stop_id": "10110", "name": "20th Ave NE & NE 55th St", "is_station": false },
      "geometry": { "type": "Point", "coordinates": [-122.30658, 47.6682739] }
    },
    {
      "type": "Feature",
      "properties": { "stop_id": "10120", "name": "20th Ave NE & NE 52nd St", "is_station": false },
      "geometry": { "type": "Point", "coordinates": [-122.306602, 47.6662827] }
    },
    {
      "type": "Feature",
      "properties": { "stop_id": "10130", "name": "NE 50th St & 19th Ave NE", "is_station": false },
      "geometry": { "type": "Point", "coordinates": [-122.307114, 47.6649284] }
    },
    {
      "type": "Feature",
      "properties": { "stop_id": "10145", "name": "NE 50th St & 16th Ave NE", "is_station": false },
      "geometry": { "type": "Point", "coordinates": [-122.311172, 47.664959] }
    },
    {
      "type": "Feature",
      "properties": {
        "stop_id": "10170",
        "name": "Fairview Ave E & E Nelson Pl",
        "is_station": false
      },
      "geometry": { "type": "Point", "coordinates": [-122.329338, 47.6300545] }
    },
    {
      "type": "Feature",
      "properties": {
        "stop_id": "10180",
        "name": "Fairview Ave N & Yale Ave N",
        "is_station": false
      },
      "geometry": { "type": "Point", "coordinates": [-122.33152, 47.6283493] }
    },
    {
      "type": "Feature",
      "properties": {
        "stop_id": "10190",
        "name": "Fairview Ave N & Aloha St",
        "is_station": false
      },
      "geometry": { "type": "Point", "coordinates": [-122.333122, 47.6270752] }
    },
    {
      "type": "Feature",
      "properties": { "stop_id": "102", "name": "Spring St & 4th Ave", "is_station": false },
      "geometry": { "type": "Point", "coordinates": [-122.333092, 47.6069107] }
    },
    {
      "type": "Feature",
      "properties": {
        "stop_id": "10210",
        "name": "Fairview Ave N & Mercer St",
        "is_station": false
      },
      "geometry": { "type": "Point", "coordinates": [-122.33445, 47.6235619] }
    },
    {
      "type": "Feature",
      "properties": {
        "stop_id": "10225",
        "name": "Fairview Ave N & Thomas St",
        "is_station": false
      },
      "geometry": { "type": "Point", "coordinates": [-122.334435, 47.6205864] }
    },
    {
      "type": "Feature",
      "properties": { "stop_id": "10240", "name": "Boren Ave & Virginia St", "is_station": false },
      "geometry": { "type": "Point", "coordinates": [-122.333817, 47.6175003] }
    },
    {
      "type": "Feature",
      "properties": { "stop_id": "10280", "name": "Fairview Ave & Denny Way", "is_station": false },
      "geometry": { "type": "Point", "coordinates": [-122.334198, 47.6188736] }
    },
    {
      "type": "Feature",
      "properties": { "stop_id": "103", "name": "Spring St & 8th Ave", "is_station": false },
      "geometry": { "type": "Point", "coordinates": [-122.329239, 47.6085281] }
    },
    {
      "type": "Feature",
      "properties": {
        "stop_id": "10305",
        "name": "Fairview Ave N & Harrison St",
        "is_station": false
      },
      "geometry": { "type": "Point", "coordinates": [-122.334229, 47.6222763] }
    },
    {
      "type": "Feature",
      "properties": {
        "stop_id": "10325",
        "name": "Fairview Ave N & Valley St",
        "is_station": false
      },
      "geometry": { "type": "Point", "coordinates": [-122.33345, 47.6266136] }
    },
    {
      "type": "Feature",
      "properties": {
        "stop_id": "10328",
        "name": "Valley St & Fairview Ave N",
        "is_station": false
      },
      "geometry": { "type": "Point", "coordinates": [-122.334106, 47.6260338] }
    },
    {
      "type": "Feature",
      "properties": {
        "stop_id": "10340",
        "name": "Fairview Ave N & Yale Ave N",
        "is_station": false
      },
      "geometry": { "type": "Point", "coordinates": [-122.330597, 47.6288757] }
    },
    {
      "type": "Feature",
      "properties": {
        "stop_id": "10350",
        "name": "Fairview Ave E & Yale Ave N",
        "is_station": false
      },
      "geometry": { "type": "Point", "coordinates": [-122.329185, 47.6299744] }
    },
    {
      "type": "Feature",
      "properties": {
        "stop_id": "10370",
        "name": "NE 50th St & University Way NE",
        "is_station": false
      },
      "geometry": { "type": "Point", "coordinates": [-122.31266, 47.6648293] }
    },
    {
      "type": "Feature",
      "properties": { "stop_id": "10380", "name": "NE 50th St & 16th Ave NE", "is_station": false },
      "geometry": { "type": "Point", "coordinates": [-122.310432, 47.664814] }
    },
    {
      "type": "Feature",
      "properties": { "stop_id": "104", "name": "Madison St & Terry Ave", "is_station": false },
      "geometry": { "type": "Point", "coordinates": [-122.325897, 47.6089478] }
    },
    {
      "type": "Feature",
      "properties": { "stop_id": "1040", "name": "Olive Way & 6th Ave", "is_station": false },
      "geometry": { "type": "Point", "coordinates": [-122.336334, 47.6130257] }
    },
    {
      "type": "Feature",
      "properties": { "stop_id": "10400", "name": "20th Ave NE & NE 50th St", "is_station": false },
      "geometry": { "type": "Point", "coordinates": [-122.306404, 47.6650276] }
    },
    {
      "type": "Feature",
      "properties": { "stop_id": "10410", "name": "20th Ave NE & NE 52nd St", "is_station": false },
      "geometry": { "type": "Point", "coordinates": [-122.306404, 47.6666412] }
    },
    {
      "type": "Feature",
      "properties": { "stop_id": "10420", "name": "20th Ave NE & NE 54th St", "is_station": false },
      "geometry": { "type": "Point", "coordinates": [-122.306389, 47.6681633] }
    },
    {
      "type": "Feature",
      "properties": {
        "stop_id": "10430",
        "name": "NE Ravenna Blvd & 21st Ave NE",
        "is_station": false
      },
      "geometry": { "type": "Point", "coordinates": [-122.305595, 47.669239] }
    },
    {
      "type": "Feature",
      "properties": {
        "stop_id": "10445",
        "name": "Ravenna Ave NE & NE 54th St",
        "is_station": false
      },
      "geometry": { "type": "Point", "coordinates": [-122.303864, 47.6680031] }
    },
    {
      "type": "Feature",
      "properties": { "stop_id": "10460", "name": "NE 55th St & 25th Ave NE", "is_station": false },
      "geometry": { "type": "Point", "coordinates": [-122.300217, 47.6684494] }
    },
    {
      "type": "Feature",
      "properties": { "stop_id": "10470", "name": "NE 55th St & 27th Ave NE", "is_station": false },
      "geometry": { "type": "Point", "coordinates": [-122.298218, 47.6684494] }
    },
    {
      "type": "Feature",
      "properties": { "stop_id": "10480", "name": "NE 55th St & 30th Ave NE", "is_station": false },
      "geometry": { "type": "Point", "coordinates": [-122.295074, 47.6684494] }
    },
    {
      "type": "Feature",
      "properties": { "stop_id": "10490", "name": "NE 55th St & 33rd Ave NE", "is_station": false },
      "geometry": { "type": "Point", "coordinates": [-122.29232, 47.6684494] }
    },
    {
      "type": "Feature",
      "properties": { "stop_id": "105", "name": "Madison St & Boylston Ave", "is_station": false },
      "geometry": { "type": "Point", "coordinates": [-122.322517, 47.6103554] }
    },
    {
      "type": "Feature",
      "properties": { "stop_id": "1050", "name": "Olive Way & 8th Ave", "is_station": false },
      "geometry": { "type": "Point", "coordinates": [-122.33416, 47.6139374] }
    },
    {
      "type": "Feature",
      "properties": { "stop_id": "10500", "name": "NE 55th St & 35th Ave NE", "is_station": false },
      "geometry": { "type": "Point", "coordinates": [-122.29039, 47.6684456] }
    },
    {
      "type": "Feature",
      "properties": { "stop_id": "10510", "name": "NE 55th St & 36th Ave NE", "is_station": false },
      "geometry": { "type": "Point", "coordinates": [-122.288803, 47.6684456] }
    },
    {
      "type": "Feature",
      "properties": { "stop_id": "10513", "name": "40th Ave NE & NE 46th St", "is_station": false },
      "geometry": { "type": "Point", "coordinates": [-122.284668, 47.6619339] }
    },
    {
      "type": "Feature",
      "properties": { "stop_id": "10515", "name": "40th Ave NE & NE 50th St", "is_station": false },
      "geometry": { "type": "Point", "coordinates": [-122.284698, 47.6650925] }
    },
    {
      "type": "Feature",
      "properties": { "stop_id": "10525", "name": "NE 55th St & 40th Ave NE", "is_station": false },
      "geometry": { "type": "Point", "coordinates": [-122.285049, 47.6684418] }
    },
    {
      "type": "Feature",
      "properties": { "stop_id": "10550", "name": "NE 55th St & 45th Ave NE", "is_station": false },
      "geometry": { "type": "Point", "coordinates": [-122.279121, 47.6690025] }
    },
    {
      "type": "Feature",
      "properties": {
        "stop_id": "10560",
        "name": "NE 55th St & Princeton Ave NE",
        "is_station": false
      },
      "geometry": { "type": "Point", "coordinates": [-122.275909, 47.6691818] }
    },
    {
      "type": "Feature",
      "properties": {
        "stop_id": "10561",
        "name": "Sand Point Way NE & 38th Ave NE",
        "is_station": false
      },
      "geometry": { "type": "Point", "coordinates": [-122.286484, 47.6615753] }
    },
    {
      "type": "Feature",
      "properties": {
        "stop_id": "10562",
        "name": "Sand Point Way NE & 40th Ave NE",
        "is_station": false
      },
      "geometry": { "type": "Point", "coordinates": [-122.284119, 47.6634483] }
    },
    {
      "type": "Feature",
      "properties": {
        "stop_id": "10564",
        "name": "Sand Point Way NE & NE 50th St",
        "is_station": false
      },
      "geometry": { "type": "Point", "coordinates": [-122.282867, 47.6646538] }
    },
    {
      "type": "Feature",
      "properties": {
        "stop_id": "10566",
        "name": "Sand Point Way NE & NE 52nd St",
        "is_station": false
      },
      "geometry": { "type": "Point", "coordinates": [-122.28035, 47.6670799] }
    },
    {
      "type": "Feature",
      "properties": {
        "stop_id": "10568",
        "name": "Sand Point Way NE & Princeton Ave NE",
        "is_station": false
      },
      "geometry": { "type": "Point", "coordinates": [-122.275978, 47.6681938] }
    },
    {
      "type": "Feature",
      "properties": {
        "stop_id": "10580",
        "name": "Sand Point Way NE & NE Windermere Rd",
        "is_station": false
      },
      "geometry": { "type": "Point", "coordinates": [-122.270485, 47.6702614] }
    },
    {
      "type": "Feature",
      "properties": { "stop_id": "106", "name": "E Madison St & 12th Ave", "is_station": false },
      "geometry": { "type": "Point", "coordinates": [-122.31588, 47.6131248] }
    },
    {
      "type": "Feature",
      "properties": {
        "stop_id": "10600",
        "name": "Sand Point Way NE & NE 61st St",
        "is_station": false
      },
      "geometry": { "type": "Point", "coordinates": [-122.266663, 47.6729889] }
    },
    {
      "type": "Feature",
      "properties": {
        "stop_id": "10620",
        "name": "Sand Point Way NE & NE 65th St",
        "is_station": false
      },
      "geometry": { "type": "Point", "coordinates": [-122.263428, 47.6759758] }
    },
    {
      "type": "Feature",
      "properties": {
        "stop_id": "10630",
        "name": "Sand Point Way NE & NE 70th St",
        "is_station": false
      },
      "geometry": { "type": "Point", "coordinates": [-122.263519, 47.6797371] }
    },
    {
      "type": "Feature",
      "properties": {
        "stop_id": "10640",
        "name": "Sand Point Way NE & NE 74th St",
        "is_station": false
      },
      "geometry": { "type": "Point", "coordinates": [-122.263565, 47.6817589] }
    },
    {
      "type": "Feature",
      "properties": {
        "stop_id": "10641",
        "name": "Sand Point Way NE & NE 74th St",
        "is_station": false
      },
      "geometry": { "type": "Point", "coordinates": [-122.263573, 47.6824036] }
    },
    {
      "type": "Feature",
      "properties": {
        "stop_id": "10650",
        "name": "Sand Point Way NE & NE 77th St",
        "is_station": false
      },
      "geometry": { "type": "Point", "coordinates": [-122.264465, 47.6850052] }
    },
    {
      "type": "Feature",
      "properties": { "stop_id": "10653", "name": "NOAA & Building 1", "is_station": false },
      "geometry": { "type": "Point", "coordinates": [-122.257362, 47.6865425] }
    },
    {
      "type": "Feature",
      "properties": { "stop_id": "10654", "name": "NE NOAA Dr", "is_station": false },
      "geometry": { "type": "Point", "coordinates": [-122.260803, 47.6861496] }
    },
    {
      "type": "Feature",
      "properties": { "stop_id": "10657", "name": "NE NOAA Dr & Guard Shack", "is_station": false },
      "geometry": { "type": "Point", "coordinates": [-122.259926, 47.6862411] }
    },
    {
      "type": "Feature",
      "properties": { "stop_id": "10658", "name": "NOAA & Building 3", "is_station": false },
      "geometry": { "type": "Point", "coordinates": [-122.255531, 47.6860123] }
    },
    {
      "type": "Feature",
      "properties": {
        "stop_id": "10680",
        "name": "Sand Point Way NE & Inverness Dr NE",
        "is_station": false
      },
      "geometry": { "type": "Point", "coordinates": [-122.270943, 47.6928253] }
    },
    {
      "type": "Feature",
      "properties": { "stop_id": "107", "name": "E Madison St & 17th Ave", "is_station": false },
      "geometry": { "type": "Point", "coordinates": [-122.309723, 47.615696] }
    },
    {
      "type": "Feature",
      "properties": { "stop_id": "1070", "name": "Olive Way & Terry Ave", "is_station": false },
      "geometry": { "type": "Point", "coordinates": [-122.331894, 47.6148834] }
    },
    {
      "type": "Feature",
      "properties": {
        "stop_id": "10700",
        "name": "Sand Point Way NE & Matthews Pl NE",
        "is_station": false
      },
      "geometry": { "type": "Point", "coordinates": [-122.275177, 47.6945229] }
    },
    {
      "type": "Feature",
      "properties": {
        "stop_id": "10710",
        "name": "Sand Point Way NE & NE 93rd St",
        "is_station": false
      },
      "geometry": { "type": "Point", "coordinates": [-122.276566, 47.6961441] }
    },
    {
      "type": "Feature",
      "properties": {
        "stop_id": "10720",
        "name": "Sand Point Way NE & NE 95th St",
        "is_station": false
      },
      "geometry": { "type": "Point", "coordinates": [-122.277443, 47.6972351] }
    },
    {
      "type": "Feature",
      "properties": { "stop_id": "1073", "name": "Olive Way & Boren Ave", "is_station": false },
      "geometry": { "type": "Point", "coordinates": [-122.330063, 47.6156654] }
    },
    {
      "type": "Feature",
      "properties": {
        "stop_id": "10730",
        "name": "Sand Point Way NE & NE 97th St",
        "is_station": false
      },
      "geometry": { "type": "Point", "coordinates": [-122.277634, 47.6990929] }
    },
    {
      "type": "Feature",
      "properties": {
        "stop_id": "10750",
        "name": "Sand Point Way NE & NE 103rd St",
        "is_station": false
      },
      "geometry": { "type": "Point", "coordinates": [-122.277565, 47.7030869] }
    },
    {
      "type": "Feature",
      "properties": {
        "stop_id": "10760",
        "name": "Sand Point Way NE & NE 106th St",
        "is_station": false
      },
      "geometry": { "type": "Point", "coordinates": [-122.278374, 47.7053642] }
    },
    {
      "type": "Feature",
      "properties": {
        "stop_id": "10780",
        "name": "Sand Point Way NE & NE 110th St",
        "is_station": false
      },
      "geometry": { "type": "Point", "coordinates": [-122.280212, 47.7092285] }
    },
    {
      "type": "Feature",
      "properties": { "stop_id": "108", "name": "E Madison St & 22nd Ave E", "is_station": false },
      "geometry": { "type": "Point", "coordinates": [-122.30394, 47.6181297] }
    },
    {
      "type": "Feature",
      "properties": {
        "stop_id": "10800",
        "name": "Sand Point Way NE & NE 115th St",
        "is_station": false
      },
      "geometry": { "type": "Point", "coordinates": [-122.281837, 47.7126198] }
    },
    {
      "type": "Feature",
      "properties": {
        "stop_id": "10820",
        "name": "Sand Point Way NE & NE 120th St",
        "is_station": false
      },
      "geometry": { "type": "Point", "coordinates": [-122.283005, 47.7160149] }
    },
    {
      "type": "Feature",
      "properties": {
        "stop_id": "10830",
        "name": "Sand Point Way NE & NE 123rd St",
        "is_station": false
      },
      "geometry": { "type": "Point", "coordinates": [-122.283928, 47.717598] }
    },
    {
      "type": "Feature",
      "properties": {
        "stop_id": "10840",
        "name": "NE 125th St & 39th Ave NE",
        "is_station": false
      },
      "geometry": { "type": "Point", "coordinates": [-122.28669, 47.7192917] }
    },
    {
      "type": "Feature",
      "properties": { "stop_id": "1085", "name": "Pine St & 9th Ave", "is_station": false },
      "geometry": { "type": "Point", "coordinates": [-122.332603, 47.6133766] }
    },
    {
      "type": "Feature",
      "properties": {
        "stop_id": "10860",
        "name": "NE 125th St & 35th Ave NE",
        "is_station": false
      },
      "geometry": { "type": "Point", "coordinates": [-122.291412, 47.7193222] }
    },
    {
      "type": "Feature",
      "properties": {
        "stop_id": "10870",
        "name": "NE 125th St & 33rd Ave NE",
        "is_station": false
      },
      "geometry": { "type": "Point", "coordinates": [-122.293205, 47.7193375] }
    },
    {
      "type": "Feature",
      "properties": { "stop_id": "109", "name": "E Madison St & 24th Ave E", "is_station": false },
      "geometry": { "type": "Point", "coordinates": [-122.300407, 47.6205368] }
    },
    {
      "type": "Feature",
      "properties": { "stop_id": "10910", "name": "12th Ave NE & NE 47th St", "is_station": false },
      "geometry": { "type": "Point", "coordinates": [-122.315475, 47.662281] }
    },
    {
      "type": "Feature",
      "properties": {
        "stop_id": "10911",
        "name": "U District Station - Bay 3",
        "is_station": false
      },
      "geometry": { "type": "Point", "coordinates": [-122.313477, 47.6612053] }
    },
    {
      "type": "Feature",
      "properties": { "stop_id": "10912", "name": "15th Ave NE & NE 43rd St", "is_station": false },
      "geometry": { "type": "Point", "coordinates": [-122.312096, 47.6593704] }
    },
    {
      "type": "Feature",
      "properties": {
        "stop_id": "10914",
        "name": "15th Ave NE & NE Campus Pkwy",
        "is_station": false
      },
      "geometry": { "type": "Point", "coordinates": [-122.312164, 47.6564217] }
    },
    {
      "type": "Feature",
      "properties": {
        "stop_id": "10915",
        "name": "Harvard Ave E & Eastlake Ave E",
        "is_station": false
      },
      "geometry": { "type": "Point", "coordinates": [-122.321999, 47.6499405] }
    },
    {
      "type": "Feature",
      "properties": {
        "stop_id": "10916",
        "name": "Harvard Ave E & Eastlake Ave E",
        "is_station": false
      },
      "geometry": { "type": "Point", "coordinates": [-122.322205, 47.6496201] }
    },
    {
      "type": "Feature",
      "properties": { "stop_id": "10917", "name": "15th Ave NE & NE 40th St", "is_station": false },
      "geometry": { "type": "Point", "coordinates": [-122.31221, 47.6548195] }
    },
    {
      "type": "Feature",
      "properties": {
        "stop_id": "10920",
        "name": "Harvard Ave E & E Shelby St",
        "is_station": false
      },
      "geometry": { "type": "Point", "coordinates": [-122.322205, 47.647007] }
    },
    {
      "type": "Feature",
      "properties": {
        "stop_id": "10940",
        "name": "10th Ave E & E Roanoke St",
        "is_station": false
      },
      "geometry": { "type": "Point", "coordinates": [-122.32016, 47.6427994] }
    },
    {
      "type": "Feature",
      "properties": { "stop_id": "10950", "name": "10th Ave E & E Miller St", "is_station": false },
      "geometry": { "type": "Point", "coordinates": [-122.32016, 47.6411629] }
    },
    {
      "type": "Feature",
      "properties": { "stop_id": "10970", "name": "10th Ave E & E Newton St", "is_station": false },
      "geometry": { "type": "Point", "coordinates": [-122.320183, 47.6370277] }
    },
    {
      "type": "Feature",
      "properties": { "stop_id": "10990", "name": "10th Ave E & E Galer St", "is_station": false },
      "geometry": { "type": "Point", "coordinates": [-122.320305, 47.6321259] }
    },
    {
      "type": "Feature",
      "properties": {
        "stop_id": "11010",
        "name": "10th Ave E & E Prospect St",
        "is_station": false
      },
      "geometry": { "type": "Point", "coordinates": [-122.32032, 47.6288223] }
    },
    {
      "type": "Feature",
      "properties": { "stop_id": "11011", "name": "Broadway  E & E Roy St", "is_station": false },
      "geometry": { "type": "Point", "coordinates": [-122.32122, 47.625515] }
    },
    {
      "type": "Feature",
      "properties": { "stop_id": "11012", "name": "E Aloha St & Broadway  E", "is_station": false },
      "geometry": { "type": "Point", "coordinates": [-122.320961, 47.6267662] }
    },
    {
      "type": "Feature",
      "properties": { "stop_id": "11025", "name": "Boren Ave & Jefferson St", "is_station": false },
      "geometry": { "type": "Point", "coordinates": [-122.322029, 47.6060677] }
    },
    {
      "type": "Feature",
      "properties": { "stop_id": "11030", "name": "E Roy St & Broadway  E", "is_station": false },
      "geometry": { "type": "Point", "coordinates": [-122.320702, 47.625267] }
    },
    {
      "type": "Feature",
      "properties": { "stop_id": "11033", "name": "Boren Ave & Marion St", "is_station": false },
      "geometry": { "type": "Point", "coordinates": [-122.324188, 47.608429] }
    },
    {
      "type": "Feature",
      "properties": { "stop_id": "11035", "name": "Boren Ave & Madison St", "is_station": false },
      "geometry": { "type": "Point", "coordinates": [-122.325294, 47.6096344] }
    },
    {
      "type": "Feature",
      "properties": {
        "stop_id": "11040",
        "name": "Broadway  E & E Republican St",
        "is_station": false
      },
      "geometry": { "type": "Point", "coordinates": [-122.321014, 47.6228943] }
    },
    {
      "type": "Feature",
      "properties": {
        "stop_id": "11050",
        "name": "Broadway  E & E Thomas St",
        "is_station": false
      },
      "geometry": { "type": "Point", "coordinates": [-122.320992, 47.6208153] }
    },
    {
      "type": "Feature",
      "properties": {
        "stop_id": "11060",
        "name": "Broadway & E Denny Way - Bay 4",
        "is_station": false
      },
      "geometry": { "type": "Point", "coordinates": [-122.320946, 47.6185379] }
    },
    {
      "type": "Feature",
      "properties": { "stop_id": "11070", "name": "Broadway & E Pine St", "is_station": false },
      "geometry": { "type": "Point", "coordinates": [-122.320923, 47.6161919] }
    },
    {
      "type": "Feature",
      "properties": { "stop_id": "11075", "name": "Boren Ave & Seneca St", "is_station": false },
      "geometry": { "type": "Point", "coordinates": [-122.32621, 47.6103745] }
    },
    {
      "type": "Feature",
      "properties": { "stop_id": "11080", "name": "E Pine St & Broadway", "is_station": false },
      "geometry": { "type": "Point", "coordinates": [-122.321495, 47.615303] }
    },
    {
      "type": "Feature",
      "properties": { "stop_id": "11085", "name": "Boren Ave & Madison St", "is_station": false },
      "geometry": { "type": "Point", "coordinates": [-122.324913, 47.6089554] }
    },
    {
      "type": "Feature",
      "properties": { "stop_id": "11087", "name": "Boren Ave & Columbia St", "is_station": false },
      "geometry": { "type": "Point", "coordinates": [-122.323669, 47.6075935] }
    },
    {
      "type": "Feature",
      "properties": { "stop_id": "11090", "name": "E Pine St & Belmont Ave", "is_station": false },
      "geometry": { "type": "Point", "coordinates": [-122.325127, 47.6152878] }
    },
    {
      "type": "Feature",
      "properties": {
        "stop_id": "111",
        "name": "E Madison St & Martin L King Jr Way E",
        "is_station": false
      },
      "geometry": { "type": "Point", "coordinates": [-122.297264, 47.6226578] }
    },
    {
      "type": "Feature",
      "properties": { "stop_id": "1110", "name": "Pine St & 5th Ave", "is_station": false },
      "geometry": { "type": "Point", "coordinates": [-122.336456, 47.6117668] }
    },
    {
      "type": "Feature",
      "properties": { "stop_id": "11100", "name": "E Pine St & Bellevue Ave", "is_station": false },
      "geometry": { "type": "Point", "coordinates": [-122.327271, 47.6152992] }
    },
    {
      "type": "Feature",
      "properties": { "stop_id": "11130", "name": "Pike St & Convention Pl", "is_station": false },
      "geometry": { "type": "Point", "coordinates": [-122.33136, 47.6123695] }
    },
    {
      "type": "Feature",
      "properties": { "stop_id": "11133", "name": "Pike St & Minor Ave", "is_station": false },
      "geometry": { "type": "Point", "coordinates": [-122.327957, 47.6137848] }
    },
    {
      "type": "Feature",
      "properties": { "stop_id": "11140", "name": "E Pine St & Summit Ave", "is_station": false },
      "geometry": { "type": "Point", "coordinates": [-122.324638, 47.6151581] }
    },
    {
      "type": "Feature",
      "properties": { "stop_id": "11150", "name": "E Pine St & Harvard Ave", "is_station": false },
      "geometry": { "type": "Point", "coordinates": [-122.321617, 47.6151619] }
    },
    {
      "type": "Feature",
      "properties": { "stop_id": "11175", "name": "Broadway And Denny", "is_station": false },
      "geometry": { "type": "Point", "coordinates": [-122.320946, 47.6180534] }
    },
    {
      "type": "Feature",
      "properties": {
        "stop_id": "11180",
        "name": "Broadway  E & E John St - Bay 3",
        "is_station": false
      },
      "geometry": { "type": "Point", "coordinates": [-122.32077, 47.6197739] }
    },
    {
      "type": "Feature",
      "properties": {
        "stop_id": "11190",
        "name": "Broadway  E & E Harrison St",
        "is_station": false
      },
      "geometry": { "type": "Point", "coordinates": [-122.320816, 47.6221962] }
    },
    {
      "type": "Feature",
      "properties": { "stop_id": "11191", "name": "10th Ave E & E Mercer St", "is_station": false },
      "geometry": { "type": "Point", "coordinates": [-122.319992, 47.623951] }
    },
    {
      "type": "Feature",
      "properties": { "stop_id": "1120", "name": "Pine St & 4th Ave", "is_station": false },
      "geometry": { "type": "Point", "coordinates": [-122.338028, 47.6111031] }
    },
    {
      "type": "Feature",
      "properties": {
        "stop_id": "11200",
        "name": "Broadway  E & E Mercer St",
        "is_station": false
      },
      "geometry": { "type": "Point", "coordinates": [-122.320839, 47.6246109] }
    },
    {
      "type": "Feature",
      "properties": {
        "stop_id": "11230",
        "name": "10th Ave E & E Prospect St",
        "is_station": false
      },
      "geometry": { "type": "Point", "coordinates": [-122.320114, 47.6288605] }
    },
    {
      "type": "Feature",
      "properties": { "stop_id": "11250", "name": "10th Ave E & E Galer St", "is_station": false },
      "geometry": { "type": "Point", "coordinates": [-122.320099, 47.6322136] }
    },
    {
      "type": "Feature",
      "properties": { "stop_id": "11270", "name": "10th Ave E & E Howe St", "is_station": false },
      "geometry": { "type": "Point", "coordinates": [-122.319992, 47.6362305] }
    },
    {
      "type": "Feature",
      "properties": { "stop_id": "11290", "name": "10th Ave E & E Miller St", "is_station": false },
      "geometry": { "type": "Point", "coordinates": [-122.319969, 47.6410675] }
    },
    {
      "type": "Feature",
      "properties": {
        "stop_id": "11300",
        "name": "E Roanoke St & Broadway  E",
        "is_station": false
      },
      "geometry": { "type": "Point", "coordinates": [-122.320747, 47.643261] }
    },
    {
      "type": "Feature",
      "properties": {
        "stop_id": "11330",
        "name": "Harvard Ave E & E Shelby St",
        "is_station": false
      },
      "geometry": { "type": "Point", "coordinates": [-122.321999, 47.647171] }
    },
    {
      "type": "Feature",
      "properties": { "stop_id": "11352", "name": "15th Ave NE & NE 42nd St", "is_station": false },
      "geometry": { "type": "Point", "coordinates": [-122.311905, 47.6586685] }
    },
    {
      "type": "Feature",
      "properties": { "stop_id": "11356", "name": "NE 45th St & 17th Ave NE", "is_station": false },
      "geometry": { "type": "Point", "coordinates": [-122.31012, 47.6613274] }
    },
    {
      "type": "Feature",
      "properties": { "stop_id": "11357", "name": "NE 45th St & 20th Ave NE", "is_station": false },
      "geometry": { "type": "Point", "coordinates": [-122.306923, 47.6613274] }
    },
    {
      "type": "Feature",
      "properties": {
        "stop_id": "11358",
        "name": "U District Station - Bay 2",
        "is_station": false
      },
      "geometry": { "type": "Point", "coordinates": [-122.313614, 47.6613388] }
    },
    {
      "type": "Feature",
      "properties": { "stop_id": "11370", "name": "15th Ave E & E Galer St", "is_station": false },
      "geometry": { "type": "Point", "coordinates": [-122.312607, 47.6324997] }
    },
    {
      "type": "Feature",
      "properties": {
        "stop_id": "11390",
        "name": "15th Ave E & E Prospect St",
        "is_station": false
      },
      "geometry": { "type": "Point", "coordinates": [-122.312668, 47.628479] }
    },
    {
      "type": "Feature",
      "properties": { "stop_id": "11400", "name": "15th Ave E & E Aloha St", "is_station": false },
      "geometry": { "type": "Point", "coordinates": [-122.312668, 47.6266823] }
    },
    {
      "type": "Feature",
      "properties": { "stop_id": "11410", "name": "15th Ave E & E Roy St", "is_station": false },
      "geometry": { "type": "Point", "coordinates": [-122.312698, 47.6250267] }
    },
    {
      "type": "Feature",
      "properties": {
        "stop_id": "11430",
        "name": "15th Ave E & E Republican St",
        "is_station": false
      },
      "geometry": { "type": "Point", "coordinates": [-122.312737, 47.6228943] }
    },
    {
      "type": "Feature",
      "properties": { "stop_id": "11480", "name": "E Pine St & 15th Ave", "is_station": false },
      "geometry": { "type": "Point", "coordinates": [-122.313255, 47.6153564] }
    },
    {
      "type": "Feature",
      "properties": { "stop_id": "11490", "name": "E Pine St & 13th Ave", "is_station": false },
      "geometry": { "type": "Point", "coordinates": [-122.31591, 47.615345] }
    },
    {
      "type": "Feature",
      "properties": { "stop_id": "11520", "name": "E Pine St & 12th Ave", "is_station": false },
      "geometry": { "type": "Point", "coordinates": [-122.316483, 47.6152] }
    },
    {
      "type": "Feature",
      "properties": { "stop_id": "11535", "name": "E Pine St & 15th Ave", "is_station": false },
      "geometry": { "type": "Point", "coordinates": [-122.311852, 47.6152115] }
    },
    {
      "type": "Feature",
      "properties": { "stop_id": "11565", "name": "15th Ave E & E Thomas St", "is_station": false },
      "geometry": { "type": "Point", "coordinates": [-122.312607, 47.6207733] }
    },
    {
      "type": "Feature",
      "properties": { "stop_id": "11566", "name": "15th Ave E & E Thomas St", "is_station": false },
      "geometry": { "type": "Point", "coordinates": [-122.312805, 47.6206436] }
    },
    {
      "type": "Feature",
      "properties": { "stop_id": "11567", "name": "15th Ave E & E Denny Way", "is_station": false },
      "geometry": { "type": "Point", "coordinates": [-122.312645, 47.6187935] }
    },
    {
      "type": "Feature",
      "properties": { "stop_id": "11568", "name": "15th Ave & E Denny Way", "is_station": false },
      "geometry": { "type": "Point", "coordinates": [-122.312851, 47.6183014] }
    },
    {
      "type": "Feature",
      "properties": { "stop_id": "11569", "name": "15th Ave & E Pine St", "is_station": false },
      "geometry": { "type": "Point", "coordinates": [-122.312668, 47.6156998] }
    },
    {
      "type": "Feature",
      "properties": {
        "stop_id": "11570",
        "name": "15th Ave E & E Republican St",
        "is_station": false
      },
      "geometry": { "type": "Point", "coordinates": [-122.312538, 47.622963] }
    },
    {
      "type": "Feature",
      "properties": { "stop_id": "11590", "name": "15th Ave E & E Roy St", "is_station": false },
      "geometry": { "type": "Point", "coordinates": [-122.312492, 47.6254234] }
    },
    {
      "type": "Feature",
      "properties": { "stop_id": "11600", "name": "15th Ave E & E Aloha St", "is_station": false },
      "geometry": { "type": "Point", "coordinates": [-122.312469, 47.6270981] }
    },
    {
      "type": "Feature",
      "properties": {
        "stop_id": "11610",
        "name": "15th Ave E & E Prospect St",
        "is_station": false
      },
      "geometry": { "type": "Point", "coordinates": [-122.312454, 47.6289024] }
    },
    {
      "type": "Feature",
      "properties": {
        "stop_id": "11620",
        "name": "15th Ave E & E Highland Dr",
        "is_station": false
      },
      "geometry": { "type": "Point", "coordinates": [-122.312424, 47.6308327] }
    },
    {
      "type": "Feature",
      "properties": {
        "stop_id": "11630",
        "name": "Grandview Pl E & E Galer St",
        "is_station": false
      },
      "geometry": { "type": "Point", "coordinates": [-122.311821, 47.6325226] }
    },
    {
      "type": "Feature",
      "properties": {
        "stop_id": "11640",
        "name": "Grandview Pl E & E Garfield St",
        "is_station": false
      },
      "geometry": { "type": "Point", "coordinates": [-122.311798, 47.634079] }
    },
    {
      "type": "Feature",
      "properties": {
        "stop_id": "11680",
        "name": "Mount Rainier Dr S & S Hanford St",
        "is_station": false
      },
      "geometry": { "type": "Point", "coordinates": [-122.284843, 47.5756569] }
    },
    {
      "type": "Feature",
      "properties": {
        "stop_id": "11690",
        "name": "Mount Rainier Dr S & S Ridgeway Pl",
        "is_station": false
      },
      "geometry": { "type": "Point", "coordinates": [-122.28624, 47.5765381] }
    },
    {
      "type": "Feature",
      "properties": {
        "stop_id": "11700",
        "name": "S Mcclellan St & Lake Park Dr S",
        "is_station": false
      },
      "geometry": { "type": "Point", "coordinates": [-122.288605, 47.5784073] }
    },
    {
      "type": "Feature",
      "properties": {
        "stop_id": "11720",
        "name": "S Mcclellan St & 31st Ave S",
        "is_station": false
      },
      "geometry": { "type": "Point", "coordinates": [-122.292671, 47.5784111] }
    },
    {
      "type": "Feature",
      "properties": { "stop_id": "11730", "name": "31st Ave S & S Lander St", "is_station": false },
      "geometry": { "type": "Point", "coordinates": [-122.292908, 47.5798607] }
    },
    {
      "type": "Feature",
      "properties": {
        "stop_id": "11750",
        "name": "31st Ave S & S College St",
        "is_station": false
      },
      "geometry": { "type": "Point", "coordinates": [-122.292892, 47.5827065] }
    },
    {
      "type": "Feature",
      "properties": { "stop_id": "11770", "name": "31st Ave S & S Plum St", "is_station": false },
      "geometry": { "type": "Point", "coordinates": [-122.292908, 47.5850983] }
    },
    {
      "type": "Feature",
      "properties": {
        "stop_id": "11790",
        "name": "31st Ave S & S Massachusetts St",
        "is_station": false
      },
      "geometry": { "type": "Point", "coordinates": [-122.292442, 47.5881615] }
    },
    {
      "type": "Feature",
      "properties": { "stop_id": "1180", "name": "Pike St & 4th Ave", "is_station": false },
      "geometry": { "type": "Point", "coordinates": [-122.336838, 47.6100731] }
    },
    {
      "type": "Feature",
      "properties": { "stop_id": "11800", "name": "31st Ave S & S Day St", "is_station": false },
      "geometry": { "type": "Point", "coordinates": [-122.292305, 47.5905914] }
    },
    {
      "type": "Feature",
      "properties": { "stop_id": "11820", "name": "31st Ave S & S Norman St", "is_station": false },
      "geometry": { "type": "Point", "coordinates": [-122.292656, 47.5935059] }
    },
    {
      "type": "Feature",
      "properties": {
        "stop_id": "11840",
        "name": "31st Ave S & S Dearborn St",
        "is_station": false
      },
      "geometry": { "type": "Point", "coordinates": [-122.292603, 47.5959206] }
    },
    {
      "type": "Feature",
      "properties": { "stop_id": "11860", "name": "31st Ave S & S King St", "is_station": false },
      "geometry": { "type": "Point", "coordinates": [-122.292519, 47.597908] }
    },
    {
      "type": "Feature",
      "properties": {
        "stop_id": "11870",
        "name": "S Jackson St & 30th Ave S",
        "is_station": false
      },
      "geometry": { "type": "Point", "coordinates": [-122.29364, 47.5992508] }
    },
    {
      "type": "Feature",
      "properties": {
        "stop_id": "11880",
        "name": "S Jackson St & 28th Ave S",
        "is_station": false
      },
      "geometry": { "type": "Point", "coordinates": [-122.296005, 47.5992813] }
    },
    {
      "type": "Feature",
      "properties": {
        "stop_id": "11890",
        "name": "S Jackson St & Martin L King Jr Way S",
        "is_station": false
      },
      "geometry": { "type": "Point", "coordinates": [-122.297752, 47.5993042] }
    },
    {
      "type": "Feature",
      "properties": { "stop_id": "1190", "name": "Pike St & 6th Ave", "is_station": false },
      "geometry": { "type": "Point", "coordinates": [-122.334526, 47.6110344] }
    },
    {
      "type": "Feature",
      "properties": {
        "stop_id": "11910",
        "name": "S Jackson St & 23rd Ave S",
        "is_station": false
      },
      "geometry": { "type": "Point", "coordinates": [-122.301811, 47.5993462] }
    },
    {
      "type": "Feature",
      "properties": { "stop_id": "11920", "name": "S Jackson St & 20th Pl S", "is_station": false },
      "geometry": { "type": "Point", "coordinates": [-122.304642, 47.5993347] }
    },
    {
      "type": "Feature",
      "properties": {
        "stop_id": "11940",
        "name": "S Jackson St & 18th Ave S",
        "is_station": false
      },
      "geometry": { "type": "Point", "coordinates": [-122.309349, 47.5993042] }
    },
    {
      "type": "Feature",
      "properties": { "stop_id": "1195", "name": "Pike St & 7th Ave", "is_station": false },
      "geometry": { "type": "Point", "coordinates": [-122.332687, 47.6118088] }
    },
    {
      "type": "Feature",
      "properties": {
        "stop_id": "11960",
        "name": "S Jackson St & Rainier Ave S",
        "is_station": false
      },
      "geometry": { "type": "Point", "coordinates": [-122.313354, 47.5991478] }
    },
    {
      "type": "Feature",
      "properties": {
        "stop_id": "11980",
        "name": "S Jackson St & 18th Ave S",
        "is_station": false
      },
      "geometry": { "type": "Point", "coordinates": [-122.309738, 47.5991669] }
    },
    {
      "type": "Feature",
      "properties": {
        "stop_id": "11990",
        "name": "S Jackson St & 20th Ave S",
        "is_station": false
      },
      "geometry": { "type": "Point", "coordinates": [-122.305893, 47.5991898] }
    },
    {
      "type": "Feature",
      "properties": {
        "stop_id": "120",
        "name": "E Madison St & Martin L King Jr Way E",
        "is_station": false
      },
      "geometry": { "type": "Point", "coordinates": [-122.296906, 47.6230965] }
    },
    {
      "type": "Feature",
      "properties": {
        "stop_id": "12010",
        "name": "S Jackson St & 23rd Ave S",
        "is_station": false
      },
      "geometry": { "type": "Point", "coordinates": [-122.30143, 47.5992203] }
    },
    {
      "type": "Feature",
      "properties": {
        "stop_id": "12030",
        "name": "S Jackson St & 28th Ave S",
        "is_station": false
      },
      "geometry": { "type": "Point", "coordinates": [-122.295952, 47.5991478] }
    },
    {
      "type": "Feature",
      "properties": {
        "stop_id": "12040",
        "name": "S Jackson St & 30th Ave S",
        "is_station": false
      },
      "geometry": { "type": "Point", "coordinates": [-122.29393, 47.5991173] }
    },
    {
      "type": "Feature",
      "properties": { "stop_id": "12050", "name": "31st Ave S & S King St", "is_station": false },
      "geometry": { "type": "Point", "coordinates": [-122.29274, 47.597744] }
    },
    {
      "type": "Feature",
      "properties": {
        "stop_id": "12070",
        "name": "31st Ave S & S Dearborn St",
        "is_station": false
      },
      "geometry": { "type": "Point", "coordinates": [-122.292809, 47.5955124] }
    },
    {
      "type": "Feature",
      "properties": { "stop_id": "12080", "name": "31st Ave S & S Norman St", "is_station": false },
      "geometry": { "type": "Point", "coordinates": [-122.292877, 47.5930748] }
    },
    {
      "type": "Feature",
      "properties": { "stop_id": "12090", "name": "31st Ave S & S Irving St", "is_station": false },
      "geometry": { "type": "Point", "coordinates": [-122.292496, 47.5909729] }
    },
    {
      "type": "Feature",
      "properties": { "stop_id": "121", "name": "E Madison St & 23rd Ave E", "is_station": false },
      "geometry": { "type": "Point", "coordinates": [-122.302483, 47.6193161] }
    },
    {
      "type": "Feature",
      "properties": {
        "stop_id": "12110",
        "name": "31st Ave S & S Massachusetts St",
        "is_station": false
      },
      "geometry": { "type": "Point", "coordinates": [-122.292648, 47.5878716] }
    },
    {
      "type": "Feature",
      "properties": { "stop_id": "12130", "name": "31st Ave S & S Plum St", "is_station": false },
      "geometry": { "type": "Point", "coordinates": [-122.293098, 47.5849571] }
    },
    {
      "type": "Feature",
      "properties": { "stop_id": "12140", "name": "31st Ave S & S Walker St", "is_station": false },
      "geometry": { "type": "Point", "coordinates": [-122.293106, 47.5834236] }
    },
    {
      "type": "Feature",
      "properties": { "stop_id": "1215", "name": "Union St & 5th Ave", "is_station": false },
      "geometry": { "type": "Point", "coordinates": [-122.334511, 47.6098289] }
    },
    {
      "type": "Feature",
      "properties": { "stop_id": "12160", "name": "31st Ave S & S Lander St", "is_station": false },
      "geometry": { "type": "Point", "coordinates": [-122.293098, 47.579422] }
    },
    {
      "type": "Feature",
      "properties": {
        "stop_id": "12170",
        "name": "S Mcclellan St & 31st Ave S",
        "is_station": false
      },
      "geometry": { "type": "Point", "coordinates": [-122.292496, 47.5782776] }
    },
    {
      "type": "Feature",
      "properties": {
        "stop_id": "12190",
        "name": "S Mcclellan St & S Mount Baker Blvd",
        "is_station": false
      },
      "geometry": { "type": "Point", "coordinates": [-122.288712, 47.5782738] }
    },
    {
      "type": "Feature",
      "properties": { "stop_id": "122", "name": "E Madison St & 22nd Ave E", "is_station": false },
      "geometry": { "type": "Point", "coordinates": [-122.304665, 47.6179543] }
    },
    {
      "type": "Feature",
      "properties": {
        "stop_id": "12200",
        "name": "Mount Rainier Dr S & 37th Pl S",
        "is_station": false
      },
      "geometry": { "type": "Point", "coordinates": [-122.286827, 47.5767555] }
    },
    {
      "type": "Feature",
      "properties": {
        "stop_id": "12210",
        "name": "E Mcgilvra St & 42nd Ave E",
        "is_station": false
      },
      "geometry": { "type": "Point", "coordinates": [-122.278122, 47.6407738] }
    },
    {
      "type": "Feature",
      "properties": { "stop_id": "12220", "name": "42nd Ave E & E Lynn St", "is_station": false },
      "geometry": { "type": "Point", "coordinates": [-122.278534, 47.6388626] }
    },
    {
      "type": "Feature",
      "properties": { "stop_id": "12230", "name": "42nd Ave E & E Newton St", "is_station": false },
      "geometry": { "type": "Point", "coordinates": [-122.278564, 47.6367264] }
    },
    {
      "type": "Feature",
      "properties": {
        "stop_id": "12240",
        "name": "42nd Ave E & E Madison St",
        "is_station": false
      },
      "geometry": { "type": "Point", "coordinates": [-122.278572, 47.6356049] }
    },
    {
      "type": "Feature",
      "properties": {
        "stop_id": "12250",
        "name": "E Madison St & 41st Ave E",
        "is_station": false
      },
      "geometry": { "type": "Point", "coordinates": [-122.279778, 47.6347008] }
    },
    {
      "type": "Feature",
      "properties": {
        "stop_id": "12260",
        "name": "E Madison St & E Garfield St",
        "is_station": false
      },
      "geometry": { "type": "Point", "coordinates": [-122.281433, 47.6335716] }
    },
    {
      "type": "Feature",
      "properties": {
        "stop_id": "12270",
        "name": "E Madison St & 38th Ave E",
        "is_station": false
      },
      "geometry": { "type": "Point", "coordinates": [-122.283836, 47.6319466] }
    },
    {
      "type": "Feature",
      "properties": {
        "stop_id": "12280",
        "name": "E Madison St & 36th Ave E",
        "is_station": false
      },
      "geometry": { "type": "Point", "coordinates": [-122.286324, 47.6302643] }
    },
    {
      "type": "Feature",
      "properties": {
        "stop_id": "12290",
        "name": "E Madison St & 34th Ave E",
        "is_station": false
      },
      "geometry": { "type": "Point", "coordinates": [-122.288345, 47.6289024] }
    },
    {
      "type": "Feature",
      "properties": { "stop_id": "123", "name": "E Madison St & 17th Ave", "is_station": false },
      "geometry": { "type": "Point", "coordinates": [-122.310516, 47.6155205] }
    },
    {
      "type": "Feature",
      "properties": { "stop_id": "1230", "name": "Union St & 4th Ave", "is_station": false },
      "geometry": { "type": "Point", "coordinates": [-122.336288, 47.6090813] }
    },
    {
      "type": "Feature",
      "properties": {
        "stop_id": "12310",
        "name": "E Madison St & Lake Washington Blvd",
        "is_station": false
      },
      "geometry": { "type": "Point", "coordinates": [-122.292725, 47.6259193] }
    },
    {
      "type": "Feature",
      "properties": {
        "stop_id": "12340",
        "name": "E Madison St & 25th Ave E",
        "is_station": false
      },
      "geometry": { "type": "Point", "coordinates": [-122.300186, 47.6208687] }
    },
    {
      "type": "Feature",
      "properties": { "stop_id": "12353", "name": "E Madison St & 19th Ave", "is_station": false },
      "geometry": { "type": "Point", "coordinates": [-122.308052, 47.6165466] }
    },
    {
      "type": "Feature",
      "properties": { "stop_id": "12373", "name": "E Madison St & 18th Ave", "is_station": false },
      "geometry": { "type": "Point", "coordinates": [-122.308426, 47.61623] }
    },
    {
      "type": "Feature",
      "properties": {
        "stop_id": "12390",
        "name": "E Madison St & 29th Ave E",
        "is_station": false
      },
      "geometry": { "type": "Point", "coordinates": [-122.295189, 47.6240654] }
    },
    {
      "type": "Feature",
      "properties": { "stop_id": "124", "name": "E Madison St & 12th Ave", "is_station": false },
      "geometry": { "type": "Point", "coordinates": [-122.316254, 47.6131287] }
    },
    {
      "type": "Feature",
      "properties": {
        "stop_id": "12400",
        "name": "E Madison St & Lake Washington Blvd",
        "is_station": false
      },
      "geometry": { "type": "Point", "coordinates": [-122.292099, 47.626152] }
    },
    {
      "type": "Feature",
      "properties": {
        "stop_id": "12410",
        "name": "E Madison St & 33rd Ave E",
        "is_station": false
      },
      "geometry": { "type": "Point", "coordinates": [-122.289093, 47.6281853] }
    },
    {
      "type": "Feature",
      "properties": {
        "stop_id": "12420",
        "name": "E Madison St & 36th Ave E",
        "is_station": false
      },
      "geometry": { "type": "Point", "coordinates": [-122.286514, 47.62994] }
    },
    {
      "type": "Feature",
      "properties": {
        "stop_id": "12430",
        "name": "E Madison St & 38th Ave E",
        "is_station": false
      },
      "geometry": { "type": "Point", "coordinates": [-122.284302, 47.631443] }
    },
    {
      "type": "Feature",
      "properties": {
        "stop_id": "12440",
        "name": "E Madison St & 39th Ave E",
        "is_station": false
      },
      "geometry": { "type": "Point", "coordinates": [-122.282822, 47.6324272] }
    },
    {
      "type": "Feature",
      "properties": {
        "stop_id": "12450",
        "name": "E Madison St & 41st Ave E",
        "is_station": false
      },
      "geometry": { "type": "Point", "coordinates": [-122.280022, 47.6343307] }
    },
    {
      "type": "Feature",
      "properties": { "stop_id": "12460", "name": "43rd Ave E & E Blaine St", "is_station": false },
      "geometry": { "type": "Point", "coordinates": [-122.277046, 47.6348839] }
    },
    {
      "type": "Feature",
      "properties": {
        "stop_id": "12470",
        "name": "43rd Ave E & E Madison St",
        "is_station": false
      },
      "geometry": { "type": "Point", "coordinates": [-122.277016, 47.636631] }
    },
    {
      "type": "Feature",
      "properties": {
        "stop_id": "12479",
        "name": "Martin L King Jr Way S & S Irving St",
        "is_station": false
      },
      "geometry": { "type": "Point", "coordinates": [-122.29763, 47.5900154] }
    },
    {
      "type": "Feature",
      "properties": { "stop_id": "12480", "name": "43rd Ave E & E Lynn St", "is_station": false },
      "geometry": { "type": "Point", "coordinates": [-122.276993, 47.6390877] }
    },
    {
      "type": "Feature",
      "properties": {
        "stop_id": "12484",
        "name": "Martin L King Jr Way S & S Hill St",
        "is_station": false
      },
      "geometry": { "type": "Point", "coordinates": [-122.298248, 47.584259] }
    },
    {
      "type": "Feature",
      "properties": { "stop_id": "12485", "name": "S Walker St & 25th Ave S", "is_station": false },
      "geometry": { "type": "Point", "coordinates": [-122.299629, 47.5837135] }
    },
    {
      "type": "Feature",
      "properties": {
        "stop_id": "12486",
        "name": "Martin L King Jr Way S & S Bayview St",
        "is_station": false
      },
      "geometry": { "type": "Point", "coordinates": [-122.296921, 47.5810013] }
    },
    {
      "type": "Feature",
      "properties": {
        "stop_id": "12487",
        "name": "Martin L King Jr Way S & S Massachusetts St",
        "is_station": false
      },
      "geometry": { "type": "Point", "coordinates": [-122.298195, 47.5879974] }
    },
    {
      "type": "Feature",
      "properties": { "stop_id": "12496", "name": "S Plum St & 25th Ave S", "is_station": false },
      "geometry": { "type": "Point", "coordinates": [-122.300079, 47.5854111] }
    },
    {
      "type": "Feature",
      "properties": {
        "stop_id": "12497",
        "name": "Martin L King Jr Way S & S Massachusetts St",
        "is_station": false
      },
      "geometry": { "type": "Point", "coordinates": [-122.297821, 47.5887337] }
    },
    {
      "type": "Feature",
      "properties": { "stop_id": "125", "name": "Madison St & Boylston Ave", "is_station": false },
      "geometry": { "type": "Point", "coordinates": [-122.322372, 47.6105804] }
    },
    {
      "type": "Feature",
      "properties": { "stop_id": "1250", "name": "Seneca St & 4th Ave", "is_station": false },
      "geometry": { "type": "Point", "coordinates": [-122.33461, 47.6074219] }
    },
    {
      "type": "Feature",
      "properties": { "stop_id": "12500", "name": "26th Ave S & S Norman St", "is_station": false },
      "geometry": { "type": "Point", "coordinates": [-122.298958, 47.5931625] }
    },
    {
      "type": "Feature",
      "properties": {
        "stop_id": "12520",
        "name": "S Dearborn St & 26th Ave S",
        "is_station": false
      },
      "geometry": { "type": "Point", "coordinates": [-122.299423, 47.5956268] }
    },
    {
      "type": "Feature",
      "properties": { "stop_id": "12532", "name": "23rd Ave S & S Lane St", "is_station": false },
      "geometry": { "type": "Point", "coordinates": [-122.302124, 47.5967102] }
    },
    {
      "type": "Feature",
      "properties": {
        "stop_id": "12550",
        "name": "23rd Ave S & S Jackson St",
        "is_station": false
      },
      "geometry": { "type": "Point", "coordinates": [-122.302124, 47.5996971] }
    },
    {
      "type": "Feature",
      "properties": { "stop_id": "12560", "name": "23rd Ave & E Yesler Way", "is_station": false },
      "geometry": { "type": "Point", "coordinates": [-122.302299, 47.6018944] }
    },
    {
      "type": "Feature",
      "properties": { "stop_id": "126", "name": "Madison St & Terry Ave", "is_station": false },
      "geometry": { "type": "Point", "coordinates": [-122.325974, 47.6090698] }
    },
    {
      "type": "Feature",
      "properties": { "stop_id": "1260", "name": "Seneca St & 6th Ave", "is_station": false },
      "geometry": { "type": "Point", "coordinates": [-122.331482, 47.6087418] }
    },
    {
      "type": "Feature",
      "properties": {
        "stop_id": "12600",
        "name": "23rd Ave & E Jefferson St",
        "is_station": false
      },
      "geometry": { "type": "Point", "coordinates": [-122.302887, 47.6058998] }
    },
    {
      "type": "Feature",
      "properties": {
        "stop_id": "12630",
        "name": "23rd Ave S & E Yesler Way",
        "is_station": false
      },
      "geometry": { "type": "Point", "coordinates": [-122.302361, 47.6012573] }
    },
    {
      "type": "Feature",
      "properties": {
        "stop_id": "12640",
        "name": "23rd Ave S & S Jackson St",
        "is_station": false
      },
      "geometry": { "type": "Point", "coordinates": [-122.302315, 47.5989761] }
    },
    {
      "type": "Feature",
      "properties": {
        "stop_id": "12660",
        "name": "S Dearborn St & 24th Ave S",
        "is_station": false
      },
      "geometry": { "type": "Point", "coordinates": [-122.301636, 47.5955009] }
    },
    {
      "type": "Feature",
      "properties": { "stop_id": "12670", "name": "24th Ave S & S Norman St", "is_station": false },
      "geometry": { "type": "Point", "coordinates": [-122.301292, 47.5927429] }
    },
    {
      "type": "Feature",
      "properties": { "stop_id": "12690", "name": "34th Ave & E Union St", "is_station": false },
      "geometry": { "type": "Point", "coordinates": [-122.289421, 47.6125031] }
    },
    {
      "type": "Feature",
      "properties": { "stop_id": "127", "name": "Madison St & 8th Ave", "is_station": false },
      "geometry": { "type": "Point", "coordinates": [-122.328857, 47.6078682] }
    },
    {
      "type": "Feature",
      "properties": { "stop_id": "12700", "name": "34th Ave & E Marion St", "is_station": false },
      "geometry": { "type": "Point", "coordinates": [-122.289474, 47.6105156] }
    },
    {
      "type": "Feature",
      "properties": { "stop_id": "12712", "name": "34th Ave & E Cherry St", "is_station": false },
      "geometry": { "type": "Point", "coordinates": [-122.28952, 47.6081123] }
    },
    {
      "type": "Feature",
      "properties": { "stop_id": "12720", "name": "E Cherry St & 32nd Ave", "is_station": false },
      "geometry": { "type": "Point", "coordinates": [-122.292, 47.6080322] }
    },
    {
      "type": "Feature",
      "properties": {
        "stop_id": "12740",
        "name": "E Cherry St & Martin L King Jr Way",
        "is_station": false
      },
      "geometry": { "type": "Point", "coordinates": [-122.296158, 47.6080627] }
    },
    {
      "type": "Feature",
      "properties": { "stop_id": "12760", "name": "E Cherry St & 24th Ave", "is_station": false },
      "geometry": { "type": "Point", "coordinates": [-122.300499, 47.6080704] }
    },
    {
      "type": "Feature",
      "properties": { "stop_id": "12770", "name": "23rd Ave & E Cherry St", "is_station": false },
      "geometry": { "type": "Point", "coordinates": [-122.302879, 47.6077118] }
    },
    {
      "type": "Feature",
      "properties": {
        "stop_id": "12780",
        "name": "E Jefferson St & 23rd Ave",
        "is_station": false
      },
      "geometry": { "type": "Point", "coordinates": [-122.303215, 47.6062393] }
    },
    {
      "type": "Feature",
      "properties": {
        "stop_id": "12790",
        "name": "E Jefferson St & 21st Ave",
        "is_station": false
      },
      "geometry": { "type": "Point", "coordinates": [-122.305351, 47.6062355] }
    },
    {
      "type": "Feature",
      "properties": { "stop_id": "128", "name": "Madison St & 5th Ave", "is_station": false },
      "geometry": { "type": "Point", "coordinates": [-122.331566, 47.6067352] }
    },
    {
      "type": "Feature",
      "properties": {
        "stop_id": "12805",
        "name": "E Jefferson St & 18th Ave",
        "is_station": false
      },
      "geometry": { "type": "Point", "coordinates": [-122.309669, 47.6062508] }
    },
    {
      "type": "Feature",
      "properties": {
        "stop_id": "12820",
        "name": "E Jefferson St & 15th Ave",
        "is_station": false
      },
      "geometry": { "type": "Point", "coordinates": [-122.313126, 47.606266] }
    },
    {
      "type": "Feature",
      "properties": {
        "stop_id": "12840",
        "name": "E Jefferson St & 12th Ave",
        "is_station": false
      },
      "geometry": { "type": "Point", "coordinates": [-122.317108, 47.606266] }
    },
    {
      "type": "Feature",
      "properties": { "stop_id": "12841", "name": "12th Ave & E Alder St", "is_station": false },
      "geometry": { "type": "Point", "coordinates": [-122.316879, 47.6045799] }
    },
    {
      "type": "Feature",
      "properties": { "stop_id": "12842", "name": "12th Ave & E Terrace St", "is_station": false },
      "geometry": { "type": "Point", "coordinates": [-122.316689, 47.6050415] }
    },
    {
      "type": "Feature",
      "properties": { "stop_id": "12860", "name": "Jefferson St & Broadway", "is_station": false },
      "geometry": { "type": "Point", "coordinates": [-122.321167, 47.6061554] }
    },
    {
      "type": "Feature",
      "properties": { "stop_id": "12880", "name": "Jefferson St & 9th Ave", "is_station": false },
      "geometry": { "type": "Point", "coordinates": [-122.323914, 47.6050072] }
    },
    {
      "type": "Feature",
      "properties": { "stop_id": "12890", "name": "James St & 8th Ave", "is_station": false },
      "geometry": { "type": "Point", "coordinates": [-122.325813, 47.6051865] }
    },
    {
      "type": "Feature",
      "properties": { "stop_id": "129", "name": "Madison St & 3rd Ave", "is_station": false },
      "geometry": { "type": "Point", "coordinates": [-122.334419, 47.6055412] }
    },
    {
      "type": "Feature",
      "properties": { "stop_id": "12900", "name": "James St & 8th Ave", "is_station": false },
      "geometry": { "type": "Point", "coordinates": [-122.3255, 47.6051636] }
    },
    {
      "type": "Feature",
      "properties": { "stop_id": "12910", "name": "9th Ave & Jefferson St", "is_station": false },
      "geometry": { "type": "Point", "coordinates": [-122.324242, 47.6048737] }
    },
    {
      "type": "Feature",
      "properties": {
        "stop_id": "12930",
        "name": "E Jefferson St & Broadway",
        "is_station": false
      },
      "geometry": { "type": "Point", "coordinates": [-122.320229, 47.606144] }
    },
    {
      "type": "Feature",
      "properties": {
        "stop_id": "12950",
        "name": "E Jefferson St & 12th Ave",
        "is_station": false
      },
      "geometry": { "type": "Point", "coordinates": [-122.316376, 47.6061249] }
    },
    {
      "type": "Feature",
      "properties": {
        "stop_id": "12960",
        "name": "E Jefferson St & 14th Ave",
        "is_station": false
      },
      "geometry": { "type": "Point", "coordinates": [-122.31356, 47.6061249] }
    },
    {
      "type": "Feature",
      "properties": {
        "stop_id": "12980",
        "name": "E Jefferson St & 17th Ave",
        "is_station": false
      },
      "geometry": { "type": "Point", "coordinates": [-122.309929, 47.6061096] }
    },
    {
      "type": "Feature",
      "properties": {
        "stop_id": "12991",
        "name": "E Jefferson St & 20th Ave",
        "is_station": false
      },
      "geometry": { "type": "Point", "coordinates": [-122.305962, 47.6060982] }
    },
    {
      "type": "Feature",
      "properties": { "stop_id": "13005", "name": "21st Ave & E James St", "is_station": false },
      "geometry": { "type": "Point", "coordinates": [-122.304924, 47.607399] }
    },
    {
      "type": "Feature",
      "properties": { "stop_id": "13020", "name": "E Cherry St & 23rd Ave", "is_station": false },
      "geometry": { "type": "Point", "coordinates": [-122.30233, 47.6079369] }
    },
    {
      "type": "Feature",
      "properties": { "stop_id": "13030", "name": "E Cherry St & 25th Ave", "is_station": false },
      "geometry": { "type": "Point", "coordinates": [-122.299774, 47.6079369] }
    },
    {
      "type": "Feature",
      "properties": {
        "stop_id": "13040",
        "name": "E Cherry St & Martin L King Jr Way",
        "is_station": false
      },
      "geometry": { "type": "Point", "coordinates": [-122.296364, 47.6079292] }
    },
    {
      "type": "Feature",
      "properties": { "stop_id": "13060", "name": "E Cherry St & 31st Ave", "is_station": false },
      "geometry": { "type": "Point", "coordinates": [-122.292305, 47.6079063] }
    },
    {
      "type": "Feature",
      "properties": { "stop_id": "13070", "name": "E Cherry St & 33rd Ave", "is_station": false },
      "geometry": { "type": "Point", "coordinates": [-122.290253, 47.6078835] }
    },
    {
      "type": "Feature",
      "properties": { "stop_id": "13080", "name": "34th Ave & E Columbia St", "is_station": false },
      "geometry": { "type": "Point", "coordinates": [-122.289299, 47.6094742] }
    },
    {
      "type": "Feature",
      "properties": { "stop_id": "13090", "name": "E Spring St & 34th Ave", "is_station": false },
      "geometry": { "type": "Point", "coordinates": [-122.29023, 47.6117134] }
    },
    {
      "type": "Feature",
      "properties": {
        "stop_id": "13190",
        "name": "Interlaken Turnback Loop & 19th Ave E",
        "is_station": false
      },
      "geometry": { "type": "Point", "coordinates": [-122.307373, 47.6325073] }
    },
    {
      "type": "Feature",
      "properties": { "stop_id": "13200", "name": "19th Ave E & E Galer St", "is_station": false },
      "geometry": { "type": "Point", "coordinates": [-122.307327, 47.631897] }
    },
    {
      "type": "Feature",
      "properties": {
        "stop_id": "13210",
        "name": "19th Ave E & E Highland Dr",
        "is_station": false
      },
      "geometry": { "type": "Point", "coordinates": [-122.307358, 47.6304359] }
    },
    {
      "type": "Feature",
      "properties": {
        "stop_id": "13220",
        "name": "19th Ave E & E Prospect St",
        "is_station": false
      },
      "geometry": { "type": "Point", "coordinates": [-122.307373, 47.6284943] }
    },
    {
      "type": "Feature",
      "properties": { "stop_id": "13230", "name": "19th Ave E & E Aloha St", "is_station": false },
      "geometry": { "type": "Point", "coordinates": [-122.307411, 47.6266518] }
    },
    {
      "type": "Feature",
      "properties": { "stop_id": "13240", "name": "19th Ave E & E Mercer St", "is_station": false },
      "geometry": { "type": "Point", "coordinates": [-122.307396, 47.6241951] }
    },
    {
      "type": "Feature",
      "properties": {
        "stop_id": "13250",
        "name": "19th Ave E & E Harrison St",
        "is_station": false
      },
      "geometry": { "type": "Point", "coordinates": [-122.307426, 47.6219025] }
    },
    {
      "type": "Feature",
      "properties": { "stop_id": "13260", "name": "19th Ave E & E John St", "is_station": false },
      "geometry": { "type": "Point", "coordinates": [-122.307465, 47.6194572] }
    },
    {
      "type": "Feature",
      "properties": { "stop_id": "13262", "name": "E Union St & 12th Ave", "is_station": false },
      "geometry": { "type": "Point", "coordinates": [-122.317177, 47.6129875] }
    },
    {
      "type": "Feature",
      "properties": {
        "stop_id": "13264",
        "name": "Madison St & Boylston Ave",
        "is_station": false
      },
      "geometry": { "type": "Point", "coordinates": [-122.321686, 47.6108665] }
    },
    {
      "type": "Feature",
      "properties": { "stop_id": "13266", "name": "Madison St & Boren Ave", "is_station": false },
      "geometry": { "type": "Point", "coordinates": [-122.324638, 47.6096268] }
    },
    {
      "type": "Feature",
      "properties": { "stop_id": "13270", "name": "19th Ave & E Denny Way", "is_station": false },
      "geometry": { "type": "Point", "coordinates": [-122.307495, 47.6182632] }
    },
    {
      "type": "Feature",
      "properties": { "stop_id": "13291", "name": "Madison St & Boren Ave", "is_station": false },
      "geometry": { "type": "Point", "coordinates": [-122.324745, 47.6094246] }
    },
    {
      "type": "Feature",
      "properties": { "stop_id": "13310", "name": "19th Ave E & E Denny Way", "is_station": false },
      "geometry": { "type": "Point", "coordinates": [-122.307274, 47.6186981] }
    },
    {
      "type": "Feature",
      "properties": { "stop_id": "13320", "name": "19th Ave E & E John St", "is_station": false },
      "geometry": { "type": "Point", "coordinates": [-122.307259, 47.619873] }
    },
    {
      "type": "Feature",
      "properties": { "stop_id": "13330", "name": "19th Ave E & E Thomas St", "is_station": false },
      "geometry": { "type": "Point", "coordinates": [-122.307251, 47.6206818] }
    },
    {
      "type": "Feature",
      "properties": {
        "stop_id": "13340",
        "name": "19th Ave E & E Harrison St",
        "is_station": false
      },
      "geometry": { "type": "Point", "coordinates": [-122.307236, 47.6218605] }
    },
    {
      "type": "Feature",
      "properties": {
        "stop_id": "13350",
        "name": "19th Ave E & E Republican St",
        "is_station": false
      },
      "geometry": { "type": "Point", "coordinates": [-122.307205, 47.6234016] }
    },
    {
      "type": "Feature",
      "properties": { "stop_id": "13360", "name": "19th Ave E & E Roy St", "is_station": false },
      "geometry": { "type": "Point", "coordinates": [-122.30722, 47.6254692] }
    },
    {
      "type": "Feature",
      "properties": { "stop_id": "13370", "name": "19th Ave E & E Aloha St", "is_station": false },
      "geometry": { "type": "Point", "coordinates": [-122.30719, 47.6270447] }
    },
    {
      "type": "Feature",
      "properties": {
        "stop_id": "13380",
        "name": "19th Ave E & E Prospect St",
        "is_station": false
      },
      "geometry": { "type": "Point", "coordinates": [-122.307167, 47.6288605] }
    },
    {
      "type": "Feature",
      "properties": {
        "stop_id": "13381",
        "name": "19th Ave E & E Highland Dr",
        "is_station": false
      },
      "geometry": { "type": "Point", "coordinates": [-122.307152, 47.630806] }
    },
    {
      "type": "Feature",
      "properties": {
        "stop_id": "13390",
        "name": "Bellevue Ave E & Bellevue Pl E",
        "is_station": false
      },
      "geometry": { "type": "Point", "coordinates": [-122.326691, 47.6262894] }
    },
    {
      "type": "Feature",
      "properties": {
        "stop_id": "1340",
        "name": "Yesler Way & Prefontaine Pl S",
        "is_station": false
      },
      "geometry": { "type": "Point", "coordinates": [-122.329582, 47.6016464] }
    },
    {
      "type": "Feature",
      "properties": {
        "stop_id": "13410",
        "name": "Bellevue Ave E & E Republican St",
        "is_station": false
      },
      "geometry": { "type": "Point", "coordinates": [-122.326698, 47.623188] }
    },
    {
      "type": "Feature",
      "properties": {
        "stop_id": "13420",
        "name": "Bellevue Ave E & E Thomas St",
        "is_station": false
      },
      "geometry": { "type": "Point", "coordinates": [-122.326691, 47.6206512] }
    },
    {
      "type": "Feature",
      "properties": {
        "stop_id": "13430",
        "name": "Bellevue Ave E & E Denny Way",
        "is_station": false
      },
      "geometry": { "type": "Point", "coordinates": [-122.32682, 47.6186447] }
    },
    {
      "type": "Feature",
      "properties": {
        "stop_id": "13441",
        "name": "Bellevue Ave & E Olive Way",
        "is_station": false
      },
      "geometry": { "type": "Point", "coordinates": [-122.326889, 47.6167336] }
    },
    {
      "type": "Feature",
      "properties": {
        "stop_id": "13460",
        "name": "Bellevue Ave & E Olive St",
        "is_station": false
      },
      "geometry": { "type": "Point", "coordinates": [-122.326691, 47.6165085] }
    },
    {
      "type": "Feature",
      "properties": {
        "stop_id": "13480",
        "name": "Summit Ave E & E Olive Way",
        "is_station": false
      },
      "geometry": { "type": "Point", "coordinates": [-122.325195, 47.6193848] }
    },
    {
      "type": "Feature",
      "properties": { "stop_id": "1350", "name": "Yesler Way & 6th Ave S", "is_station": false },
      "geometry": { "type": "Point", "coordinates": [-122.32505, 47.6016388] }
    },
    {
      "type": "Feature",
      "properties": {
        "stop_id": "13500",
        "name": "Summit Ave E & E Harrison St",
        "is_station": false
      },
      "geometry": { "type": "Point", "coordinates": [-122.325211, 47.6222191] }
    },
    {
      "type": "Feature",
      "properties": {
        "stop_id": "13510",
        "name": "Summit Ave E & E Mercer St",
        "is_station": false
      },
      "geometry": { "type": "Point", "coordinates": [-122.325226, 47.6245689] }
    },
    {
      "type": "Feature",
      "properties": { "stop_id": "13585", "name": "15th Ave NW & NW 87th St", "is_station": false },
      "geometry": { "type": "Point", "coordinates": [-122.37674, 47.6930084] }
    },
    {
      "type": "Feature",
      "properties": { "stop_id": "1360", "name": "Yesler Way & 5th Ave", "is_station": false },
      "geometry": { "type": "Point", "coordinates": [-122.327141, 47.6017799] }
    },
    {
      "type": "Feature",
      "properties": { "stop_id": "13600", "name": "15th Ave NW & NW 85th St", "is_station": false },
      "geometry": { "type": "Point", "coordinates": [-122.376915, 47.6901588] }
    },
    {
      "type": "Feature",
      "properties": { "stop_id": "13620", "name": "15th Ave NW & NW 80th St", "is_station": false },
      "geometry": { "type": "Point", "coordinates": [-122.3769, 47.6862793] }
    },
    {
      "type": "Feature",
      "properties": { "stop_id": "13640", "name": "15th Ave NW & NW 75th St", "is_station": false },
      "geometry": { "type": "Point", "coordinates": [-122.376892, 47.682991] }
    },
    {
      "type": "Feature",
      "properties": { "stop_id": "13660", "name": "15th Ave NW & NW 70th St", "is_station": false },
      "geometry": { "type": "Point", "coordinates": [-122.376877, 47.6788483] }
    },
    {
      "type": "Feature",
      "properties": { "stop_id": "13670", "name": "15th Ave NW & NW 65th St", "is_station": false },
      "geometry": { "type": "Point", "coordinates": [-122.376686, 47.6760826] }
    },
    {
      "type": "Feature",
      "properties": { "stop_id": "1370", "name": "Yesler Way & 3rd Ave", "is_station": false },
      "geometry": { "type": "Point", "coordinates": [-122.329803, 47.6017799] }
    },
    {
      "type": "Feature",
      "properties": { "stop_id": "13700", "name": "15th Ave NW & NW 60th St", "is_station": false },
      "geometry": { "type": "Point", "coordinates": [-122.376312, 47.6724358] }
    },
    {
      "type": "Feature",
      "properties": {
        "stop_id": "13721",
        "name": "15th Ave NW & NW Market St",
        "is_station": false
      },
      "geometry": { "type": "Point", "coordinates": [-122.376312, 47.6689072] }
    },
    {
      "type": "Feature",
      "properties": {
        "stop_id": "13760",
        "name": "15th Ave NW & NW Leary Way",
        "is_station": false
      },
      "geometry": { "type": "Point", "coordinates": [-122.37648, 47.6631432] }
    },
    {
      "type": "Feature",
      "properties": {
        "stop_id": "13770",
        "name": "15th Ave W & W Emerson St",
        "is_station": false
      },
      "geometry": { "type": "Point", "coordinates": [-122.376328, 47.6534042] }
    },
    {
      "type": "Feature",
      "properties": {
        "stop_id": "13775",
        "name": "W Emerson Pl & 21st Ave W",
        "is_station": false
      },
      "geometry": { "type": "Point", "coordinates": [-122.38372, 47.6558075] }
    },
    {
      "type": "Feature",
      "properties": { "stop_id": "13800", "name": "15th Ave W & W Dravus St", "is_station": false },
      "geometry": { "type": "Point", "coordinates": [-122.376877, 47.6480637] }
    },
    {
      "type": "Feature",
      "properties": { "stop_id": "13810", "name": "15th Ave W & W Armour St", "is_station": false },
      "geometry": { "type": "Point", "coordinates": [-122.376328, 47.644825] }
    },
    {
      "type": "Feature",
      "properties": {
        "stop_id": "13830",
        "name": "15th Ave W & W Wheeler St",
        "is_station": false
      },
      "geometry": { "type": "Point", "coordinates": [-122.376312, 47.6401825] }
    },
    {
      "type": "Feature",
      "properties": {
        "stop_id": "13840",
        "name": "15th Ave W & W Armory Way",
        "is_station": false
      },
      "geometry": { "type": "Point", "coordinates": [-122.376305, 47.6372871] }
    },
    {
      "type": "Feature",
      "properties": {
        "stop_id": "13870",
        "name": "Elliott Ave W & W Galer St",
        "is_station": false
      },
      "geometry": { "type": "Point", "coordinates": [-122.375305, 47.6318817] }
    },
    {
      "type": "Feature",
      "properties": {
        "stop_id": "13890",
        "name": "Elliott Ave W & W Prospect St",
        "is_station": false
      },
      "geometry": { "type": "Point", "coordinates": [-122.371849, 47.6291351] }
    },
    {
      "type": "Feature",
      "properties": { "stop_id": "13910", "name": "W Mercer St & 3rd Ave W", "is_station": false },
      "geometry": { "type": "Point", "coordinates": [-122.360809, 47.6245308] }
    },
    {
      "type": "Feature",
      "properties": { "stop_id": "14038", "name": "W Mercer St & 3rd Ave W", "is_station": false },
      "geometry": { "type": "Point", "coordinates": [-122.361153, 47.6246681] }
    },
    {
      "type": "Feature",
      "properties": {
        "stop_id": "14070",
        "name": "Elliott Ave W & W Prospect St",
        "is_station": false
      },
      "geometry": { "type": "Point", "coordinates": [-122.371414, 47.6290131] }
    },
    {
      "type": "Feature",
      "properties": {
        "stop_id": "14090",
        "name": "Elliott Ave W & W Galer St",
        "is_station": false
      },
      "geometry": { "type": "Point", "coordinates": [-122.37529, 47.6320915] }
    },
    {
      "type": "Feature",
      "properties": { "stop_id": "14110", "name": "15th Ave W & W Newton St", "is_station": false },
      "geometry": { "type": "Point", "coordinates": [-122.376099, 47.6370888] }
    },
    {
      "type": "Feature",
      "properties": {
        "stop_id": "14130",
        "name": "15th Ave W & W Wheeler St",
        "is_station": false
      },
      "geometry": { "type": "Point", "coordinates": [-122.376114, 47.6409225] }
    },
    {
      "type": "Feature",
      "properties": { "stop_id": "14150", "name": "15th Ave W & W Armour St", "is_station": false },
      "geometry": { "type": "Point", "coordinates": [-122.376122, 47.6449356] }
    },
    {
      "type": "Feature",
      "properties": { "stop_id": "14170", "name": "15th Ave W & W Dravus St", "is_station": false },
      "geometry": { "type": "Point", "coordinates": [-122.376045, 47.6491623] }
    },
    {
      "type": "Feature",
      "properties": {
        "stop_id": "14190",
        "name": "15th Ave W & W Emerson St",
        "is_station": false
      },
      "geometry": { "type": "Point", "coordinates": [-122.376122, 47.6539421] }
    },
    {
      "type": "Feature",
      "properties": {
        "stop_id": "14195",
        "name": "W Emerson Pl & 21st Ave W",
        "is_station": false
      },
      "geometry": { "type": "Point", "coordinates": [-122.382843, 47.6552963] }
    },
    {
      "type": "Feature",
      "properties": {
        "stop_id": "14200",
        "name": "15th Ave NW & NW Leary Way",
        "is_station": false
      },
      "geometry": { "type": "Point", "coordinates": [-122.375977, 47.6634369] }
    },
    {
      "type": "Feature",
      "properties": {
        "stop_id": "14230",
        "name": "15th Ave NW & NW Market St",
        "is_station": false
      },
      "geometry": { "type": "Point", "coordinates": [-122.376114, 47.6684799] }
    },
    {
      "type": "Feature",
      "properties": { "stop_id": "14250", "name": "15th Ave NW & NW 60th St", "is_station": false },
      "geometry": { "type": "Point", "coordinates": [-122.376114, 47.6722946] }
    },
    {
      "type": "Feature",
      "properties": { "stop_id": "14280", "name": "15th Ave NW & NW 65th St", "is_station": false },
      "geometry": { "type": "Point", "coordinates": [-122.376671, 47.6768608] }
    },
    {
      "type": "Feature",
      "properties": { "stop_id": "14300", "name": "15th Ave NW & NW 70th St", "is_station": false },
      "geometry": { "type": "Point", "coordinates": [-122.376671, 47.6798744] }
    },
    {
      "type": "Feature",
      "properties": { "stop_id": "14320", "name": "15th Ave NW & NW 75th St", "is_station": false },
      "geometry": { "type": "Point", "coordinates": [-122.376686, 47.6835098] }
    },
    {
      "type": "Feature",
      "properties": { "stop_id": "14340", "name": "15th Ave NW & NW 80th St", "is_station": false },
      "geometry": { "type": "Point", "coordinates": [-122.376701, 47.68713] }
    },
    {
      "type": "Feature",
      "properties": { "stop_id": "14360", "name": "15th Ave NW & NW 85th St", "is_station": false },
      "geometry": { "type": "Point", "coordinates": [-122.376709, 47.6909561] }
    },
    {
      "type": "Feature",
      "properties": { "stop_id": "1471", "name": "S Jackson St & 5th Ave S", "is_station": false },
      "geometry": { "type": "Point", "coordinates": [-122.328041, 47.5991249] }
    },
    {
      "type": "Feature",
      "properties": {
        "stop_id": "1480",
        "name": "S Jackson St & Maynard Ave S",
        "is_station": false
      },
      "geometry": { "type": "Point", "coordinates": [-122.32457, 47.5991173] }
    },
    {
      "type": "Feature",
      "properties": { "stop_id": "1490", "name": "S Jackson St & 8th Ave S", "is_station": false },
      "geometry": { "type": "Point", "coordinates": [-122.322044, 47.5991173] }
    },
    {
      "type": "Feature",
      "properties": {
        "stop_id": "14960",
        "name": "Alki Ave SW & 61st Ave SW",
        "is_station": false
      },
      "geometry": { "type": "Point", "coordinates": [-122.410797, 47.5789948] }
    },
    {
      "type": "Feature",
      "properties": {
        "stop_id": "14961",
        "name": "61st Ave SW & SW Stevens St",
        "is_station": false
      },
      "geometry": { "type": "Point", "coordinates": [-122.410797, 47.5775185] }
    },
    {
      "type": "Feature",
      "properties": {
        "stop_id": "14962",
        "name": "61st Ave SW & SW Admiral Way",
        "is_station": false
      },
      "geometry": { "type": "Point", "coordinates": [-122.410835, 47.5760269] }
    },
    {
      "type": "Feature",
      "properties": {
        "stop_id": "14963",
        "name": "SW Admiral Way & 60th Ave SW",
        "is_station": false
      },
      "geometry": { "type": "Point", "coordinates": [-122.409019, 47.5758171] }
    },
    {
      "type": "Feature",
      "properties": {
        "stop_id": "14970",
        "name": "SW Admiral Way & 59th Ave SW",
        "is_station": false
      },
      "geometry": { "type": "Point", "coordinates": [-122.407791, 47.5760765] }
    },
    {
      "type": "Feature",
      "properties": {
        "stop_id": "14980",
        "name": "SW Admiral Way & 57th Ave SW",
        "is_station": false
      },
      "geometry": { "type": "Point", "coordinates": [-122.405182, 47.577034] }
    },
    {
      "type": "Feature",
      "properties": { "stop_id": "1500", "name": "S Jackson St & 8th Ave S", "is_station": false },
      "geometry": { "type": "Point", "coordinates": [-122.322327, 47.5992661] }
    },
    {
      "type": "Feature",
      "properties": {
        "stop_id": "15000",
        "name": "SW Admiral Way & SW Stevens St",
        "is_station": false
      },
      "geometry": { "type": "Point", "coordinates": [-122.400917, 47.5785828] }
    },
    {
      "type": "Feature",
      "properties": {
        "stop_id": "15002",
        "name": "SW Admiral Way & 51st Ave SW",
        "is_station": false
      },
      "geometry": { "type": "Point", "coordinates": [-122.396996, 47.5791893] }
    },
    {
      "type": "Feature",
      "properties": {
        "stop_id": "15030",
        "name": "SW Admiral Way & SW Lander St",
        "is_station": false
      },
      "geometry": { "type": "Point", "coordinates": [-122.393799, 47.5795288] }
    },
    {
      "type": "Feature",
      "properties": {
        "stop_id": "15040",
        "name": "SW Admiral Way & 47th Ave SW",
        "is_station": false
      },
      "geometry": { "type": "Point", "coordinates": [-122.391571, 47.5811577] }
    },
    {
      "type": "Feature",
      "properties": {
        "stop_id": "15050",
        "name": "SW Admiral Way & 45th Ave SW",
        "is_station": false
      },
      "geometry": { "type": "Point", "coordinates": [-122.388924, 47.5811424] }
    },
    {
      "type": "Feature",
      "properties": {
        "stop_id": "15060",
        "name": "SW Admiral Way & California Ave SW",
        "is_station": false
      },
      "geometry": { "type": "Point", "coordinates": [-122.386177, 47.5811234] }
    },
    {
      "type": "Feature",
      "properties": {
        "stop_id": "15070",
        "name": "SW Admiral Way & 41st Ave SW",
        "is_station": false
      },
      "geometry": { "type": "Point", "coordinates": [-122.38398, 47.5811119] }
    },
    {
      "type": "Feature",
      "properties": {
        "stop_id": "15080",
        "name": "SW Admiral Way & 39th Ave SW",
        "is_station": false
      },
      "geometry": { "type": "Point", "coordinates": [-122.38092, 47.5810432] }
    },
    {
      "type": "Feature",
      "properties": {
        "stop_id": "15090",
        "name": "SW Admiral Way & Belvidere Ave SW",
        "is_station": false
      },
      "geometry": { "type": "Point", "coordinates": [-122.378922, 47.5810242] }
    },
    {
      "type": "Feature",
      "properties": {
        "stop_id": "1510",
        "name": "S Jackson St & Maynard Ave S",
        "is_station": false
      },
      "geometry": { "type": "Point", "coordinates": [-122.32547, 47.5992622] }
    },
    {
      "type": "Feature",
      "properties": {
        "stop_id": "15100",
        "name": "SW Admiral Way & SW Olga St",
        "is_station": false
      },
      "geometry": { "type": "Point", "coordinates": [-122.376793, 47.5802498] }
    },
    {
      "type": "Feature",
      "properties": {
        "stop_id": "15120",
        "name": "SW Admiral Way & SW City View St",
        "is_station": false
      },
      "geometry": { "type": "Point", "coordinates": [-122.373352, 47.573616] }
    },
    {
      "type": "Feature",
      "properties": {
        "stop_id": "15140",
        "name": "SW Spokane St & 26th Ave SW",
        "is_station": false
      },
      "geometry": { "type": "Point", "coordinates": [-122.365234, 47.5714531] }
    },
    {
      "type": "Feature",
      "properties": {
        "stop_id": "15145",
        "name": "SW Spokane St & Chelan Ave SW",
        "is_station": false
      },
      "geometry": { "type": "Point", "coordinates": [-122.362411, 47.5713043] }
    },
    {
      "type": "Feature",
      "properties": { "stop_id": "15190", "name": "1st Ave S & S Spokane St", "is_station": false },
      "geometry": { "type": "Point", "coordinates": [-122.333992, 47.5723419] }
    },
    {
      "type": "Feature",
      "properties": {
        "stop_id": "15201",
        "name": "1st Ave S & S Atlantic St",
        "is_station": false
      },
      "geometry": { "type": "Point", "coordinates": [-122.334297, 47.589901] }
    },
    {
      "type": "Feature",
      "properties": { "stop_id": "15202", "name": "1st Ave S & S Holgate St", "is_station": false },
      "geometry": { "type": "Point", "coordinates": [-122.334297, 47.585762] }
    },
    {
      "type": "Feature",
      "properties": { "stop_id": "15203", "name": "1st Ave S & S Stacy St", "is_station": false },
      "geometry": { "type": "Point", "coordinates": [-122.334297, 47.5815544] }
    },
    {
      "type": "Feature",
      "properties": {
        "stop_id": "15204",
        "name": "Edgar Martinez Dr S & Occidental Ave S",
        "is_station": false
      },
      "geometry": { "type": "Point", "coordinates": [-122.333473, 47.5901985] }
    },
    {
      "type": "Feature",
      "properties": { "stop_id": "15205", "name": "1st Ave S & S Hanford St", "is_station": false },
      "geometry": { "type": "Point", "coordinates": [-122.334106, 47.5759239] }
    },
    {
      "type": "Feature",
      "properties": { "stop_id": "15206", "name": "1st Ave S & S Stacy St", "is_station": false },
      "geometry": { "type": "Point", "coordinates": [-122.334106, 47.5822334] }
    },
    {
      "type": "Feature",
      "properties": { "stop_id": "15207", "name": "1st Ave S & S Holgate St", "is_station": false },
      "geometry": { "type": "Point", "coordinates": [-122.334106, 47.5865173] }
    },
    {
      "type": "Feature",
      "properties": { "stop_id": "15211", "name": "1st Ave S & S Walker St", "is_station": false },
      "geometry": { "type": "Point", "coordinates": [-122.334297, 47.5836525] }
    },
    {
      "type": "Feature",
      "properties": { "stop_id": "15212", "name": "1st Ave S & S Walker St", "is_station": false },
      "geometry": { "type": "Point", "coordinates": [-122.334106, 47.5842438] }
    },
    {
      "type": "Feature",
      "properties": { "stop_id": "15230", "name": "1st Ave S & S Lander St", "is_station": false },
      "geometry": { "type": "Point", "coordinates": [-122.334106, 47.5796814] }
    },
    {
      "type": "Feature",
      "properties": { "stop_id": "1530", "name": "S Jackson St & 5th Ave S", "is_station": false },
      "geometry": { "type": "Point", "coordinates": [-122.328384, 47.5992661] }
    },
    {
      "type": "Feature",
      "properties": { "stop_id": "15380", "name": "1st Ave S & S Lander St", "is_station": false },
      "geometry": { "type": "Point", "coordinates": [-122.334312, 47.5792503] }
    },
    {
      "type": "Feature",
      "properties": { "stop_id": "15395", "name": "1st Ave S & S Hanford St", "is_station": false },
      "geometry": { "type": "Point", "coordinates": [-122.334312, 47.5757523] }
    },
    {
      "type": "Feature",
      "properties": { "stop_id": "1540", "name": "James St & 5th Ave", "is_station": false },
      "geometry": { "type": "Point", "coordinates": [-122.329094, 47.6038017] }
    },
    {
      "type": "Feature",
      "properties": {
        "stop_id": "15451",
        "name": "SW Spokane St & Chelan Ave SW",
        "is_station": false
      },
      "geometry": { "type": "Point", "coordinates": [-122.363365, 47.5717201] }
    },
    {
      "type": "Feature",
      "properties": {
        "stop_id": "15460",
        "name": "SW Spokane St & 26th Ave SW",
        "is_station": false
      },
      "geometry": { "type": "Point", "coordinates": [-122.366165, 47.5717125] }
    },
    {
      "type": "Feature",
      "properties": {
        "stop_id": "15480",
        "name": "SW Admiral Way & SW City View St",
        "is_station": false
      },
      "geometry": { "type": "Point", "coordinates": [-122.373474, 47.5740433] }
    },
    {
      "type": "Feature",
      "properties": { "stop_id": "1550", "name": "James St & 4th Ave", "is_station": false },
      "geometry": { "type": "Point", "coordinates": [-122.330864, 47.6030807] }
    },
    {
      "type": "Feature",
      "properties": {
        "stop_id": "15500",
        "name": "SW Admiral Way & SW Olga St",
        "is_station": false
      },
      "geometry": { "type": "Point", "coordinates": [-122.376564, 47.5801315] }
    },
    {
      "type": "Feature",
      "properties": { "stop_id": "1551", "name": "Occidental Mall", "is_station": false },
      "geometry": { "type": "Point", "coordinates": [-122.333282, 47.5992737] }
    },
    {
      "type": "Feature",
      "properties": {
        "stop_id": "15521",
        "name": "SW Admiral Way & 38th Ave SW",
        "is_station": false
      },
      "geometry": { "type": "Point", "coordinates": [-122.380676, 47.5812531] }
    },
    {
      "type": "Feature",
      "properties": {
        "stop_id": "15532",
        "name": "SW Admiral Way & 41st Ave SW",
        "is_station": false
      },
      "geometry": { "type": "Point", "coordinates": [-122.384743, 47.5812454] }
    },
    {
      "type": "Feature",
      "properties": {
        "stop_id": "15540",
        "name": "SW Admiral Way & California Ave SW",
        "is_station": false
      },
      "geometry": { "type": "Point", "coordinates": [-122.386871, 47.5812683] }
    },
    {
      "type": "Feature",
      "properties": {
        "stop_id": "15570",
        "name": "SW Admiral Way & SW Waite St",
        "is_station": false
      },
      "geometry": { "type": "Point", "coordinates": [-122.392273, 47.5810471] }
    },
    {
      "type": "Feature",
      "properties": { "stop_id": "1558", "name": "Columbia St & Alaskan Way", "is_station": false },
      "geometry": { "type": "Point", "coordinates": [-122.336784, 47.6026154] }
    },
    {
      "type": "Feature",
      "properties": {
        "stop_id": "15580",
        "name": "SW Admiral Way & 49th Ave SW",
        "is_station": false
      },
      "geometry": { "type": "Point", "coordinates": [-122.393707, 47.5798187] }
    },
    {
      "type": "Feature",
      "properties": {
        "stop_id": "15588",
        "name": "SW Admiral Way & 51st Ave SW",
        "is_station": false
      },
      "geometry": { "type": "Point", "coordinates": [-122.397163, 47.5793343] }
    },
    {
      "type": "Feature",
      "properties": { "stop_id": "1559", "name": "Alaskan Way & Columbia St", "is_station": false },
      "geometry": { "type": "Point", "coordinates": [-122.336685, 47.6024971] }
    },
    {
      "type": "Feature",
      "properties": { "stop_id": "1560", "name": "James St & 3rd Ave", "is_station": false },
      "geometry": { "type": "Point", "coordinates": [-122.330826, 47.602932] }
    },
    {
      "type": "Feature",
      "properties": {
        "stop_id": "1561",
        "name": "Alaskan Way S & S Jackson St",
        "is_station": false
      },
      "geometry": { "type": "Point", "coordinates": [-122.335556, 47.5997009] }
    },
    {
      "type": "Feature",
      "properties": {
        "stop_id": "15610",
        "name": "SW Admiral Way & SW Lander St",
        "is_station": false
      },
      "geometry": { "type": "Point", "coordinates": [-122.400673, 47.5788994] }
    },
    {
      "type": "Feature",
      "properties": {
        "stop_id": "1562",
        "name": "Alaskan Way S & S Jackson St",
        "is_station": false
      },
      "geometry": { "type": "Point", "coordinates": [-122.33596, 47.5987167] }
    },
    {
      "type": "Feature",
      "properties": {
        "stop_id": "15630",
        "name": "SW Admiral Way & 57th Ave SW",
        "is_station": false
      },
      "geometry": { "type": "Point", "coordinates": [-122.405319, 47.5771675] }
    },
    {
      "type": "Feature",
      "properties": {
        "stop_id": "15650",
        "name": "SW Admiral Way & 61st Ave SW",
        "is_station": false
      },
      "geometry": { "type": "Point", "coordinates": [-122.41066, 47.5759735] }
    },
    {
      "type": "Feature",
      "properties": {
        "stop_id": "15651",
        "name": "63rd Ave SW & SW Admiral Way",
        "is_station": false
      },
      "geometry": { "type": "Point", "coordinates": [-122.413239, 47.5762405] }
    },
    {
      "type": "Feature",
      "properties": {
        "stop_id": "15652",
        "name": "63rd Ave SW & Alki Ave SW",
        "is_station": false
      },
      "geometry": { "type": "Point", "coordinates": [-122.413185, 47.5782089] }
    },
    {
      "type": "Feature",
      "properties": { "stop_id": "1570", "name": "James St & 5th Ave", "is_station": false },
      "geometry": { "type": "Point", "coordinates": [-122.328773, 47.6037712] }
    },
    {
      "type": "Feature",
      "properties": {
        "stop_id": "1610",
        "name": "Prefontaine Pl S & Yesler Way",
        "is_station": false
      },
      "geometry": { "type": "Point", "coordinates": [-122.329941, 47.6016579] }
    },
    {
      "type": "Feature",
      "properties": {
        "stop_id": "16100",
        "name": "Aurora Village Transit Center - Bay 10",
        "is_station": false
      },
      "geometry": { "type": "Point", "coordinates": [-122.342407, 47.7742424] }
    },
    {
      "type": "Feature",
      "properties": {
        "stop_id": "16101",
        "name": "Aurora Village Transit Center - Bay 1",
        "is_station": false
      },
      "geometry": { "type": "Point", "coordinates": [-122.341988, 47.7745056] }
    },
    {
      "type": "Feature",
      "properties": {
        "stop_id": "16103",
        "name": "Aurora Village Transit Center - Bay 3",
        "is_station": false
      },
      "geometry": { "type": "Point", "coordinates": [-122.340881, 47.7745056] }
    },
    {
      "type": "Feature",
      "properties": {
        "stop_id": "16140",
        "name": "Meridian Ave N & N 203rd St",
        "is_station": false
      },
      "geometry": { "type": "Point", "coordinates": [-122.335358, 47.7756462] }
    },
    {
      "type": "Feature",
      "properties": {
        "stop_id": "16160",
        "name": "Meridian Ave N & N 198th St",
        "is_station": false
      },
      "geometry": { "type": "Point", "coordinates": [-122.335304, 47.7721138] }
    },
    {
      "type": "Feature",
      "properties": {
        "stop_id": "16170",
        "name": "Meridian Ave N & N 194th St",
        "is_station": false
      },
      "geometry": { "type": "Point", "coordinates": [-122.335266, 47.7698402] }
    },